{
  "type": "FeatureCollection", 
  "features": [
    {
      "layer": "SE", 
      "geometry": {
        "coordinates": [
          11.957506, 
          57.697696
        ], 
        "type": "Point"
      }, 
      "type": "Feature", 
      "properties": {
        "name": "Göteborgs go-klubb", 
        "description": "http://gbg.goforbundet.se/ , Skolgatan 21, Göteborg , Wednesday 6 PM , gbg.goklubb@gmail.com\r\nhttps://www.facebook.com/groups/123111635590/"
      }
    }, 
    {
      "layer": "SE", 
      "geometry": {
        "coordinates": [
          13.0038585355816, 
          55.5927743186611
        ], 
        "type": "Point"
      }, 
      "type": "Feature", 
      "properties": {
        "name": "Malmö Goklubb", 
        "description": "http://minutopi.se/go/ , Möllevången , Every second Wednesday , http://minutopi.se/go/kontakt/"
      }
    }, 
    {
      "layer": "SE", 
      "geometry": {
        "coordinates": [
          18.046523, 
          59.331774
        ], 
        "type": "Point"
      }, 
      "type": "Feature", 
      "properties": {
        "name": "Stockholms go-klubb", 
        "description": "http://stockholm.goforbundet.se , Piperska Grottan, Pipersgatan 26, T-Rådhuset, Kungsholmen , Thursday 6 PM and sometimes Sunday 1 PM , http://stockholm.goforbundet.se/node/8"
      }
    }, 
    {
      "layer": "SE", 
      "geometry": {
        "coordinates": [
          17.648168206204, 
          59.8416011769617
        ], 
        "type": "Point"
      }, 
      "type": "Feature", 
      "properties": {
        "name": "Uppsala go-klubb", 
        "description": "https://www.facebook.com/groups/8126794587/ , kl. 19 i Ekonomikum (f.d. Humanistcentrum) i det allmänna utrymmet vid huvudentrén (\"lokstallarna\"), på Kyrkogårdsgatan , på tisdagar , uppsalago@gmail.com"
      }
    }, 
    {
      "layer": "SE", 
      "geometry": {
        "coordinates": [
          16.47486, 
          59.59792
        ], 
        "type": "Point"
      }, 
      "type": "Feature", 
      "properties": {
        "name": "Västerås Goklubb", 
        "description": "http://www.vgo.se/ , Café Koppar, Culturen, Sintervägen 6, Västerås , Thursday 5 PM , info@vgo.se"
      }
    }
  ]
}